id,latitude,longitude,name,category
390757439,41.1155576,20.7914836,Лихнид,archaeological_site
470409981,42.0690911,21.3001786,Манастир Св. Ѓорѓија,place_of_worship
499973497,41.7010390,22.8590180,Манастир Св. Архангел Михаил,place_of_worship
908273421,41.9959035,21.4314474,Споменик на Александар Македонски,monument
1475328742,42.0586697,21.3527926,Rimska crkva,archaeological_site
1475331128,42.0598924,21.2983618,Св. Атанас,place_of_worship
1475331129,42.0843452,21.3548716,Давина Кула,archaeological_site
1475333181,42.0587494,21.2786993,Голема Кула - Кучково,archaeological_site
1475333182,42.0585741,21.2844339,Мала Кула - Кучково,archaeological_site
1734593430,42.0766913,21.3988480,Gradiste kaj s.Brazda,archaeological_site
1804963753,40.9131005,20.7415162,Црква Света Петка,place_of_worship
1831180502,41.9505936,21.2991931,Манастир Св. Андреј,monument
1859114111,41.9984602,21.4349949,Филип II Македонски,memorial
1864402613,42.0604971,21.2958493,Св. Илија,place_of_worship
1866944575,41.9983057,21.4254968,Св. Климент Охридски,memorial
1867151652,41.9993163,21.4371620,Скендербег,memorial
1879436069,42.1706665,21.8098380,Костоперска Карпа,archaeological_site
2026975410,41.2775784,22.4937679,Isar / Idomenae,archaeological_site
2138788013,41.4293251,21.7629669,Ножот,memorial
2316156278,41.0246150,21.3368929,Стефан Наумов-Стив,memorial
2373710718,42.0836218,21.9862589,Цоцев Камен,archaeological_site
2535151449,41.4182976,22.0180718,Успение на Пресвета Богородица,place_of_worship
2616082758,42.1491368,21.7853235,Zebrnjak,memorial
2759245083,41.1126936,20.7995376,Свети Климент Охридски,monument
2759253188,41.1120476,20.7999940,Свети Кирил и Методиј,monument
2759263738,41.1122955,20.7990226,Свети Наум Охридски Чудотворец,monument
2829462221,42.0853984,21.9627449,Мачка камен,archaeological_site
3011061689,41.0527880,20.8128079,Sv. Mina,place_of_worship
3418320912,41.8229140,21.7360635,Масакр кај Пуста Кула,memorial
3713662739,41.9952169,21.4261530,Josip Broz Tito,memorial
4128156209,41.9977079,21.4339766,Св. Кирил и Методиј,memorial
4128156210,41.9975624,21.4341509,Св. Климент Охридски и Наум Охридски Чудотворец,memorial
4149143991,41.9953917,21.4313414,Цар Самоил,memorial
4161113452,41.9964949,21.4321474,Даме Груев,memorial
4161113453,41.9968799,21.4323054,Јустинијан I,memorial
4161249330,41.9979046,21.4344182,Олимпија,memorial
4247632191,41.8581015,20.8897368,џа́мија,place_of_worship
4247660589,41.8670645,20.8920472,џа́мија,place_of_worship
4306447780,41.3661079,21.6749495,Борка Талески-Модерното / Лазо Филиповски-Лавски,memorial
4351691820,40.9142149,20.7412554,Свети Наум,memorial
4409589398,41.8370625,20.8837497,џа́мија,place_of_worship
4411126494,41.0302025,21.3347596,Статуа Филип II,statue
4440746389,41.9930933,21.4298952,Wall Street Bull,statue
4745413067,41.2788101,20.7836677,Ботун,memorial
5327471601,41.0067740,21.3415263,Св. Троица,memorial
5541143272,41.8845661,22.5039935,Теракота,memorial
5551392390,41.1745272,20.6778868,Никола Кукунешоски - Дунѓерски,memorial
5551392391,41.1747311,20.6779485,Крсте Јовановски,memorial
5551392392,41.1749451,20.6779833,Димче Кошаркоски,memorial
5551410938,41.1756537,20.6782194,Боро Шаин,memorial
5551410939,41.1755185,20.6781791,Јово Стефановски - Риле,memorial
5551410940,41.1753893,20.6781416,Разме Малески,memorial
5551410941,41.1752843,20.6781067,Петре Гончески - Гиле,memorial
5711419372,41.9963577,21.4323793,Гоце Делчев,memorial
5722266446,42.1003011,21.9665342,Konjuh,archaeological_site
5725139643,41.7995125,22.2898290,Bargala,archaeological_site
5728312945,41.3825161,22.7542141,Roman Bathhouse,archaeological_site
5901740885,41.9952759,21.4319995,Спомен плоча на Мајка Тереза,memorial
5926438456,41.1057278,20.8078335,Ард ден Долард,memorial
6054048485,41.9957136,21.4306041,Методија Андонов - Ченто,memorial
6054048494,41.9950349,21.4293515,Споменик на Христо Узунов,statue
6349721704,41.7213441,22.6569551,Споменик на Малешевскиот (Малешки) народноослободителен одред,memorial
6418857588,41.0043725,20.9282003,Кале,archaeological_site
6471416045,41.9856377,22.5905605,Калата,archaeological_site
6535106716,41.6952366,21.6281720,Бањичко Кале,archaeological_site
6821158694,41.9943288,21.4307922,2 musicians and one dancing man,memorial
6833101185,41.1120953,20.7956940,Коста Абраш,memorial
6837039795,41.1124032,20.8071328,Henry Dunant,memorial
7475537800,41.3724643,21.5605466,Дабнички масакр,memorial
7508523395,42.0224160,21.5476216,Ацо Ангеловски,memorial
7508523396,42.0225556,21.5480468,Кирил Петрушевски,memorial
7508523397,42.0227044,21.5486015,Ерол Готак,memorial
7564103281,41.9764851,21.1660504,Нане Наумоски,memorial
7564103282,41.9778470,21.1773385,Сашо Китаноски,memorial
7564103283,41.9775300,21.1679024,Бранко Секулоски,memorial
7564125585,41.9781971,21.1745241,Горан Миноски,memorial
7564125586,41.9778930,21.1713626,Марко Деспотоски,memorial
7564125587,41.9767167,21.1675604,Ердован Шабаноски,memorial
7564125588,41.9772958,21.1694976,Љубе Грујоски,memorial
7564125589,41.9770406,21.1717935,Дарко Велјаноски,memorial
7564125590,41.9767893,21.1747438,Веби Рушитоски,memorial
7564125591,41.9770420,21.1770879,Пеце Секулоски,memorial
7623493347,41.3575814,21.6256855,Карпалак,memorial
7626158238,41.4014262,22.0284286,Масакр во Ваташа,memorial
7771077503,41.4436592,20.8721449,Duko Tasev,memorial
7836134125,41.8627557,21.9386585,Св. Илија,memorial
8048135011,41.3464944,21.5629735,Кире Гаврилоски-Јане / Круме Волнароски-Коља,memorial
8063563409,41.3421058,21.5572532,Александар Македонски,memorial
8193704891,41.3761727,21.2464617,Мирослав Јоксимовиќ,memorial
8412381211,41.3660450,20.6489384,1. Бригада,memorial
8464321299,42.0045279,21.4182143,Дане Крапчев,statue
8883349543,41.9988251,21.4506665,Генерал Михајло Апостолски,memorial
8901338318,41.6560282,21.0216359,Sultana,memorial
8901338319,41.7192252,20.8817320,Xhemë Hasa,memorial
8901349094,41.5964956,20.9510739,Albanian Mother,memorial
9077950817,41.9942061,21.4330139,Македонски бранители,statue
9078062172,41.9940194,21.4338450,Тарас Шевченко,statue
9078062188,41.9940981,21.4337313,Славко Јаневски,statue
9078062189,41.9937260,21.4332709,Невена Георгиева-Дуња,memorial
9078062190,41.9939364,21.4330930,Петар Богданов,statue
9078062191,41.9940383,21.4330051,Кузман Јосифоски-Питу,statue
9078062192,41.9940199,21.4332951,Татковина - Копнеж за прогонатите,statue
9078207072,41.9933258,21.4335226,Основачите на Македонската револуционерна организација,statue
9078207073,41.9931516,21.4336429,Првото заседание на АСНОМ,statue
9079063679,41.9936316,21.4340468,Споменик на жената борец,statue
9121296388,41.9933504,21.4338554,Паднати херои за Македонија,statue
9200215821,41.1141534,20.7982760,Нада Филева,memorial
9200216569,42.0043082,21.4185013,Dane kraptzew,memorial
9269907745,41.9918182,21.4296159,Атентат на Киро Глигоров,memorial
10006874002,42.0001506,22.1778987,Јаким Д Стојковски,memorial
10204019571,41.1757975,20.6778798,Нико Нестор-Дживджан,memorial
10204019572,41.1756353,20.6791018,Дрини дент,memorial
10294842358,41.5942721,20.6527486,Georgi Pulevski,statue
10913747003,41.9961595,21.4328538,Denkmal Neєat Agoli,statue
10913747004,41.9961265,21.4309955,Dimitrija-Chupovski-Denkmal,statue
10913797905,41.9962615,21.4327484,Споменик „Димитрија Поп-Георгиев Беровски“,statue
10913797906,41.9964125,21.4328484,Споменик „Солунски атентатори и Гемиџии“,memorial
10913797907,41.9966814,21.4331314,Споменик Пливач,statue
10913797908,41.9975108,21.4335157,Споменик „Ѓорѓија Пулевски“,statue
10913797909,41.9972261,21.4337566,Споменик „Карпош“,statue
10913830732,41.9981848,21.4262452,Споменик „Архиепископ г.г. Доситеј“,statue
10913830733,41.9940198,21.4306972,Споменик „Мајка Тереза“,statue
10913830734,41.9950978,21.4309977,Shoe Cleaner Statue,statue
11107939919,41.8117124,21.1617392,Голема Пеш,archaeological_site
11116151647,41.9944202,21.4278344,Спомен-обележје на Благоја Деспотовски Шовељ,statue
